<?xml version="1.0" encoding="UTF-8"?>
<kml xmlns="http://www.opengis.net/kml/2.2">
  <Document>
    <name>NorCal Cliff Jumping</name>
    <description>Balls</description>
    <Style id="icon-503-DB4436-normal">
      <IconStyle>
        <color>ff3644db</color>
        <scale>1.1</scale>
        <Icon>
          <href>https://www.gstatic.com/mapspro/images/stock/503-wht-blank_maps.png</href>
        </Icon>
        <hotSpot x="16" xunits="pixels" y="32" yunits="insetPixels"/>
      </IconStyle>
      <LabelStyle>
        <scale>0</scale>
      </LabelStyle>
    </Style>
    <Style id="icon-503-DB4436-highlight">
      <IconStyle>
        <color>ff3644db</color>
        <scale>1.1</scale>
        <Icon>
          <href>https://www.gstatic.com/mapspro/images/stock/503-wht-blank_maps.png</href>
        </Icon>
        <hotSpot x="16" xunits="pixels" y="32" yunits="insetPixels"/>
      </IconStyle>
      <LabelStyle>
        <scale>1.1</scale>
      </LabelStyle>
    </Style>
    <StyleMap id="icon-503-DB4436">
      <Pair>
        <key>normal</key>
        <styleUrl>#icon-503-DB4436-normal</styleUrl>
      </Pair>
      <Pair>
        <key>highlight</key>
        <styleUrl>#icon-503-DB4436-highlight</styleUrl>
      </Pair>
    </StyleMap>
    <Style id="icon-503-DB4436-nodesc-normal">
      <IconStyle>
        <color>ff3644db</color>
        <scale>1.1</scale>
        <Icon>
          <href>https://www.gstatic.com/mapspro/images/stock/503-wht-blank_maps.png</href>
        </Icon>
        <hotSpot x="16" xunits="pixels" y="32" yunits="insetPixels"/>
      </IconStyle>
      <LabelStyle>
        <scale>0</scale>
      </LabelStyle>
      <BalloonStyle>
        <text><![CDATA[<h3>$[name]</h3>]]></text>
      </BalloonStyle>
    </Style>
    <Style id="icon-503-DB4436-nodesc-highlight">
      <IconStyle>
        <color>ff3644db</color>
        <scale>1.1</scale>
        <Icon>
          <href>https://www.gstatic.com/mapspro/images/stock/503-wht-blank_maps.png</href>
        </Icon>
        <hotSpot x="16" xunits="pixels" y="32" yunits="insetPixels"/>
      </IconStyle>
      <LabelStyle>
        <scale>1.1</scale>
      </LabelStyle>
      <BalloonStyle>
        <text><![CDATA[<h3>$[name]</h3>]]></text>
      </BalloonStyle>
    </Style>
    <StyleMap id="icon-503-DB4436-nodesc">
      <Pair>
        <key>normal</key>
        <styleUrl>#icon-503-DB4436-nodesc-normal</styleUrl>
      </Pair>
      <Pair>
        <key>highlight</key>
        <styleUrl>#icon-503-DB4436-nodesc-highlight</styleUrl>
      </Pair>
    </StyleMap>
    <Folder>
      <name>Spots</name>
      <Placemark>
        <name>Hatchet Creek Falls
</name>
        <styleUrl>#icon-503-DB4436-nodesc</styleUrl>
        <Point>
          <coordinates>
            -121.893222,40.873319,0
          </coordinates>
        </Point>
      </Placemark>
      <Placemark>
        <name>Emigrant Gap/Lions Slide 
</name>
        <styleUrl>#icon-503-DB4436-nodesc</styleUrl>
        <Point>
          <coordinates>
            -120.662081,39.266602,0
          </coordinates>
        </Point>
      </Placemark>
      <Placemark>
        <name>Beale/Fairy Falls
</name>
        <styleUrl>#icon-503-DB4436-nodesc</styleUrl>
        <Point>
          <coordinates>
            -121.242671,39.1151281,0
          </coordinates>
        </Point>
      </Placemark>
      <Placemark>
        <name>Gods Bath Clavey River
</name>
        <styleUrl>#icon-503-DB4436-nodesc</styleUrl>
        <Point>
          <coordinates>
            -120.0544256,37.9914362,0
          </coordinates>
        </Point>
      </Placemark>
      <Placemark>
        <name>Happy Valley/Camp Creek
</name>
        <styleUrl>#icon-503-DB4436-nodesc</styleUrl>
        <Point>
          <coordinates>
            -120.6624126,38.658144,0
          </coordinates>
        </Point>
      </Placemark>
      <Placemark>
        <name>Hunt Hot Spring
</name>
        <styleUrl>#icon-503-DB4436-nodesc</styleUrl>
        <Point>
          <coordinates>
            -121.9316769,41.0339571,0
          </coordinates>
        </Point>
      </Placemark>
      <Placemark>
        <name>Indian Springs CG/Yuba Jump Spots
</name>
        <styleUrl>#icon-503-DB4436-nodesc</styleUrl>
        <Point>
          <coordinates>
            -120.5754554,39.3310693,0
          </coordinates>
        </Point>
      </Placemark>
      <Placemark>
        <name>Potem Falls
</name>
        <styleUrl>#icon-503-DB4436-nodesc</styleUrl>
        <Point>
          <coordinates>
            -122.0282257,40.8392605,0
          </coordinates>
        </Point>
      </Placemark>
      <Placemark>
        <name>Rainbow Falls
</name>
        <styleUrl>#icon-503-DB4436-nodesc</styleUrl>
        <Point>
          <coordinates>
            -120.012567,37.8215651,0
          </coordinates>
        </Point>
      </Placemark>
      <Placemark>
        <name><![CDATA[Nick's Ropeswing
]]></name>
        <styleUrl>#icon-503-DB4436-nodesc</styleUrl>
        <Point>
          <coordinates>
            -120.6822395,38.6582027,0
          </coordinates>
        </Point>
      </Placemark>
      <Placemark>
        <name>Traverse Falls
</name>
        <styleUrl>#icon-503-DB4436-nodesc</styleUrl>
        <Point>
          <coordinates>
            -120.7905471,38.831317,0
          </coordinates>
        </Point>
      </Placemark>
      <Placemark>
        <name>Emerald Pools
</name>
        <styleUrl>#icon-503-DB4436-nodesc</styleUrl>
        <Point>
          <coordinates>
            -120.6579441,39.318811,0
          </coordinates>
        </Point>
      </Placemark>
      <Placemark>
        <name>Jolly Boys Mine
</name>
        <styleUrl>#icon-503-DB4436-nodesc</styleUrl>
        <Point>
          <coordinates>
            -120.7106066,39.3536133,0
          </coordinates>
        </Point>
      </Placemark>
      <Placemark>
        <name>Seven Falls
</name>
        <styleUrl>#icon-503-DB4436-nodesc</styleUrl>
        <Point>
          <coordinates>
            -121.2436152,39.7041409,0
          </coordinates>
        </Point>
      </Placemark>
      <Placemark>
        <name>The Flumes</name>
        <description>Park at Feather River Hospital</description>
        <styleUrl>#icon-503-DB4436</styleUrl>
        <Point>
          <coordinates>
            -121.5626907,39.7461836,0
          </coordinates>
        </Point>
      </Placemark>
      <Placemark>
        <name>Brown/Bear Hole
</name>
        <styleUrl>#icon-503-DB4436-nodesc</styleUrl>
        <Point>
          <coordinates>
            -121.7633629,39.7722627,0
          </coordinates>
        </Point>
      </Placemark>
      <Placemark>
        <name>McCloud Falls
</name>
        <styleUrl>#icon-503-DB4436-nodesc</styleUrl>
        <Point>
          <coordinates>
            -122.0089674,41.2432073,0
          </coordinates>
        </Point>
      </Placemark>
      <Placemark>
        <name>Camp 9 Cliff Jumping
</name>
        <styleUrl>#icon-503-DB4436-nodesc</styleUrl>
        <Point>
          <coordinates>
            -120.3797293,38.1433494,0
          </coordinates>
        </Point>
      </Placemark>
      <Placemark>
        <name>Candy Rock/Blue Streak
</name>
        <styleUrl>#icon-503-DB4436-nodesc</styleUrl>
        <Point>
          <coordinates>
            -120.3240252,38.2013621,0
          </coordinates>
        </Point>
      </Placemark>
      <Placemark>
        <name>Wildwood Falls
</name>
        <styleUrl>#icon-503-DB4436-nodesc</styleUrl>
        <Point>
          <coordinates>
            -121.2240243,39.2330177,0
          </coordinates>
        </Point>
      </Placemark>
    </Folder>
  </Document>
</kml>
